[
  {
    "id": 1,
    "name": "Business Inc.",
    "address": "500 St.",
    "city": "Townsville",
    "phoneNumber": "123-456-7890",
    "license": "12-123-12-12345",
    "state": "TX",
    "zip": "75036",
    "enabled": true,
    "preferred": true,
    "fees": [
      {
        "feeName": "Handgun",
        "feeAmount": "$12"
      },
      {
        "feeName": "Rifle",
        "feeAmount": "$15"
      },
      {
        "feeName": "Shotgun",
        "feeAmount": "$17"
      }
    ],
    "businessHours": [
      {
        "day": "Monday",
        "hours": "900-1700"
      },
      {
        "day": "Tuesday",
        "hours": "900-1700"
      },
      {
        "day": "Wednesday",
        "hours": "900-1700"
      },
      {
        "day": "Thursday",
        "hours": "900-1700"
      },
      {
        "day": "Friday",
        "hours": "900-1700"
      },
      {
        "day": "Saturday",
        "hours": "900-1700"
      },
      {
        "day": "Sunday",
        "hours": "Closed"
      }
    ]
  },
  {
    "id": 2,
    "name": "POP! Zoyo Inc.",
    "address": "404 St.",
    "city": "Not Found",
    "phoneNumber": "010-101-1010",
    "license": "12-321-12-54321",
    "state": "CA",
    "zip": "91381",
    "enabled": false,
    "preferred": false,
    "fees": [
      {
        "feeName": "Handgun",
        "feeAmount": "$12"
      },
      {
        "feeName": "Rifle",
        "feeAmount": "$15"
      },
      {
        "feeName": "Shotgun",
        "feeAmount": "$17"
      }
    ],
    "businessHours": [
      {
        "day": "Monday",
        "hours": "900-1700"
      },
      {
        "day": "Tuesday",
        "hours": "900-1700"
      },
      {
        "day": "Wednesday",
        "hours": "900-1700"
      },
      {
        "day": "Thursday",
        "hours": "900-1700"
      },
      {
        "day": "Friday",
        "hours": "900-1700"
      },
      {
        "day": "Saturday",
        "hours": "900-1700"
      },
      {
        "day": "Sunday",
        "hours": "Closed"
      }
    ]
  },
  {
    "id": 3,
    "name": "Business Inc. 3",
    "address": "500 St.",
    "city": "Townsville",
    "phoneNumber": "123-456-7890",
    "license": "12-123-12-12345",
    "state": "TX",
    "zip": "75036",
    "enabled": false,
    "preferred": false,
    "fees": [
      {
        "feeName": "Handgun",
        "feeAmount": "$12"
      },
      {
        "feeName": "Rifle",
        "feeAmount": "$15"
      },
      {
        "feeName": "Shotgun",
        "feeAmount": "$17"
      }
    ],
    "businessHours": [
      {
        "day": "Monday",
        "hours": "900-1700"
      },
      {
        "day": "Tuesday",
        "hours": "900-1700"
      },
      {
        "day": "Wednesday",
        "hours": "900-1700"
      },
      {
        "day": "Thursday",
        "hours": "900-1700"
      },
      {
        "day": "Friday",
        "hours": "900-1700"
      },
      {
        "day": "Saturday",
        "hours": "900-1700"
      },
      {
        "day": "Sunday",
        "hours": "Closed"
      }
    ]
  },
  {
    "id": 4,
    "name": "Business Inc. 4",
    "address": "500 St.",
    "city": "Townsville",
    "phoneNumber": "123-456-7890",
    "license": "12-123-12-12345",
    "state": "TX",
    "zip": "75036",
    "enabled": true,
    "preferred": false,
    "fees": [
      {
        "feeName": "Handgun",
        "feeAmount": "$12"
      },
      {
        "feeName": "Rifle",
        "feeAmount": "$15"
      },
      {
        "feeName": "Shotgun",
        "feeAmount": "$17"
      }
    ],
    "businessHours": [
      {
        "day": "Monday",
        "hours": "900-1700"
      },
      {
        "day": "Tuesday",
        "hours": "900-1700"
      },
      {
        "day": "Wednesday",
        "hours": "900-1700"
      },
      {
        "day": "Thursday",
        "hours": "900-1700"
      },
      {
        "day": "Friday",
        "hours": "900-1700"
      },
      {
        "day": "Saturday",
        "hours": "900-1700"
      },
      {
        "day": "Sunday",
        "hours": "Closed"
      }
    ]
  },
  {
    "id": 5,
    "name": "Business Inc. 5",
    "address": "500 St.",
    "city": "Townsville",
    "phoneNumber": "123-456-7890",
    "license": "12-123-12-12345",
    "state": "TX",
    "zip": "75036",
    "enabled": true,
    "preferred": false,
    "fees": [
      {
        "feeName": "Handgun",
        "feeAmount": "$12"
      },
      {
        "feeName": "Rifle",
        "feeAmount": "$15"
      },
      {
        "feeName": "Shotgun",
        "feeAmount": "$17"
      }
    ],
    "businessHours": [
      {
        "day": "Monday",
        "hours": "900-1700"
      },
      {
        "day": "Tuesday",
        "hours": "900-1700"
      },
      {
        "day": "Wednesday",
        "hours": "900-1700"
      },
      {
        "day": "Thursday",
        "hours": "900-1700"
      },
      {
        "day": "Friday",
        "hours": "900-1700"
      },
      {
        "day": "Saturday",
        "hours": "900-1700"
      },
      {
        "day": "Sunday",
        "hours": "Closed"
      }
    ]
  }
]
