[{"id":1,"name":"Eire","address":"4908 Holmberg Parkway","city":"Pasadena","phoneNumber":"626-359-4485","state":"CA","zip":"91131","license":"5720137467","enabled":true,"preferred":false,"fees":[{"name":"Rifle","amount":"$75.06"},{"name":"Shotgun","amount":"$45.96"},{"name":"Shotgun","amount":"$86.94"}],"businessHours":[{"day":"Monday","hours":"900-1700"},{"day":"Tuesday","hours":"900-1700"},{"day":"Wednesday","hours":"900-1700"},{"day":"Thursday","hours":"900-1700"},{"day":"Friday","hours":"900-1700"},{"day":"Saturday","hours":"900-1700"},{"day":"Sunday","hours":"Closed"}]},
{"id":2,"name":"Zoomzone","address":"8879 Morningstar Center","city":"Florence","phoneNumber":"843-515-8182","state":"SC","zip":"29505","license":"6584174360","enabled":false,"preferred":false,"fees":[{"name":"Handgun","amount":"$86.94"},{"name":"Rifle","amount":"$45.96"}],"businessHours":[{"day":"Monday","hours":"900-1700"},{"day":"Tuesday","hours":"900-1700"},{"day":"Wednesday","hours":"900-1700"},{"day":"Thursday","hours":"900-1700"},{"day":"Friday","hours":"900-1700"},{"day":"Saturday","hours":"900-1700"},{"day":"Sunday","hours":"Closed"}]},
{"id":3,"name":"Quimm","address":"92 Sachs Center","city":"Jamaica","phoneNumber":"917-558-9591","state":"NY","zip":"11447","license":"9580291276","enabled":true,"preferred":true,"fees":[{"name":"Shotgun","amount":"$45.96"}],"businessHours":[{"day":"Monday","hours":"900-1700"},{"day":"Tuesday","hours":"900-1700"},{"day":"Wednesday","hours":"900-1700"},{"day":"Thursday","hours":"900-1700"},{"day":"Friday","hours":"900-1700"},{"day":"Saturday","hours":"900-1700"},{"day":"Sunday","hours":"Closed"}]},
{"id":4,"name":"Divape","address":"6 Gerald Trail","city":"Fort Wayne","phoneNumber":"260-525-4287","state":"IN","zip":"46857","license":"1235548465","enabled":false,"preferred":false,"fees":[{"name":"Rifle","amount":"$86.94"}],"businessHours":[{"day":"Monday","hours":"900-1700"},{"day":"Tuesday","hours":"900-1700"},{"day":"Wednesday","hours":"900-1700"},{"day":"Thursday","hours":"900-1700"},{"day":"Friday","hours":"900-1700"},{"day":"Saturday","hours":"900-1700"},{"day":"Sunday","hours":"Closed"}]},
{"id":5,"name":"Flipbug","address":"891 Roth Crossing","city":"Los Angeles","phoneNumber":"213-647-7707","state":"CA","zip":"90189","license":"6619161952","enabled":true,"preferred":true,"fees":[{"name":"Shotgun","amount":"$45.96"},{"name":"Shotgun","amount":"$75.06"}],"businessHours":[{"day":"Monday","hours":"900-1700"},{"day":"Tuesday","hours":"900-1700"},{"day":"Wednesday","hours":"900-1700"},{"day":"Thursday","hours":"900-1700"},{"day":"Friday","hours":"900-1700"},{"day":"Saturday","hours":"900-1700"},{"day":"Sunday","hours":"Closed"}]},
{"id":6,"name":"Voonyx","address":"8 Norway Maple Center","city":"Salt Lake City","phoneNumber":"801-835-6620","state":"UT","zip":"84120","license":"6734744086","enabled":true,"preferred":true,"fees":[{"name":"Rifle","amount":"$75.06"}],"businessHours":[{"day":"Monday","hours":"900-1700"},{"day":"Tuesday","hours":"900-1700"},{"day":"Wednesday","hours":"900-1700"},{"day":"Thursday","hours":"900-1700"},{"day":"Friday","hours":"900-1700"},{"day":"Saturday","hours":"900-1700"},{"day":"Sunday","hours":"Closed"}]},
{"id":7,"name":"Oozz","address":"911 Evergreen Circle","city":"New Orleans","phoneNumber":"504-883-5384","state":"LA","zip":"70165","license":"0208204393","enabled":true,"preferred":false,"fees":[{"name":"Shotgun","amount":"$86.94"},{"name":"Rifle","amount":"$75.06"},{"name":"Shotgun","amount":"$45.96"}],"businessHours":[{"day":"Monday","hours":"900-1700"},{"day":"Tuesday","hours":"900-1700"},{"day":"Wednesday","hours":"900-1700"},{"day":"Thursday","hours":"900-1700"},{"day":"Friday","hours":"900-1700"},{"day":"Saturday","hours":"900-1700"},{"day":"Sunday","hours":"Closed"}]},
{"id":8,"name":"Skyble","address":"77342 Rigney Park","city":"New Orleans","phoneNumber":"504-702-2349","state":"LA","zip":"70142","license":"1265563543","enabled":false,"preferred":true,"fees":[{"name":"Rifle","amount":"$75.06"}],"businessHours":[{"day":"Monday","hours":"900-1700"},{"day":"Tuesday","hours":"900-1700"},{"day":"Wednesday","hours":"900-1700"},{"day":"Thursday","hours":"900-1700"},{"day":"Friday","hours":"900-1700"},{"day":"Saturday","hours":"900-1700"},{"day":"Sunday","hours":"Closed"}]},
{"id":9,"name":"Devshare","address":"71373 Packers Point","city":"San Francisco","phoneNumber":"415-609-3792","state":"CA","zip":"94169","license":"4928022246","enabled":true,"preferred":false,"fees":[{"name":"Rifle","amount":"$86.94"},{"name":"Shotgun","amount":"$45.96"}],"businessHours":[{"day":"Monday","hours":"900-1700"},{"day":"Tuesday","hours":"900-1700"},{"day":"Wednesday","hours":"900-1700"},{"day":"Thursday","hours":"900-1700"},{"day":"Friday","hours":"900-1700"},{"day":"Saturday","hours":"900-1700"},{"day":"Sunday","hours":"Closed"}]},
{"id":10,"name":"Pixonyx","address":"96599 Northwestern Circle","city":"Waltham","phoneNumber":"978-393-9600","state":"MA","zip":"02453","license":"7736415684","enabled":false,"preferred":false,"fees":[{"name":"Rifle","amount":"$75.06"},{"name":"Shotgun","amount":"$45.96"},{"name":"Rifle","amount":"$86.94"}],"businessHours":[{"day":"Monday","hours":"900-1700"},{"day":"Tuesday","hours":"900-1700"},{"day":"Wednesday","hours":"900-1700"},{"day":"Thursday","hours":"900-1700"},{"day":"Friday","hours":"900-1700"},{"day":"Saturday","hours":"900-1700"},{"day":"Sunday","hours":"Closed"}]},
{"id":11,"name":"Twitterworks","address":"228 Ramsey Crossing","city":"Sparks","phoneNumber":"775-766-7271","state":"NV","zip":"89436","license":"4607111848","enabled":true,"preferred":true,"fees":[{"name":"Rifle","amount":"$45.96"},{"name":"Rifle","amount":"$75.06"},{"name":"Shotgun","amount":"$45.96"}],"businessHours":[{"day":"Monday","hours":"900-1700"},{"day":"Tuesday","hours":"900-1700"},{"day":"Wednesday","hours":"900-1700"},{"day":"Thursday","hours":"900-1700"},{"day":"Friday","hours":"900-1700"},{"day":"Saturday","hours":"900-1700"},{"day":"Sunday","hours":"Closed"}]},
{"id":12,"name":"Voonder","address":"28 Brown Terrace","city":"Fort Worth","phoneNumber":"817-566-3328","state":"TX","zip":"76147","license":"2560507676","enabled":false,"preferred":false,"fees":[{"name":"Shotgun","amount":"$75.06"},{"name":"Rifle","amount":"$45.96"},{"name":"Shotgun","amount":"$86.94"}],"businessHours":[{"day":"Monday","hours":"900-1700"},{"day":"Tuesday","hours":"900-1700"},{"day":"Wednesday","hours":"900-1700"},{"day":"Thursday","hours":"900-1700"},{"day":"Friday","hours":"900-1700"},{"day":"Saturday","hours":"900-1700"},{"day":"Sunday","hours":"Closed"}]},
{"id":13,"name":"Skinte","address":"0516 Di Loreto Court","city":"Washington","phoneNumber":"202-664-3557","state":"DC","zip":"20430","license":"0666524238","enabled":true,"preferred":true,"fees":[{"name":"Rifle","amount":"$45.96"},{"name":"Shotgun","amount":"$75.06"}],"businessHours":[{"day":"Monday","hours":"900-1700"},{"day":"Tuesday","hours":"900-1700"},{"day":"Wednesday","hours":"900-1700"},{"day":"Thursday","hours":"900-1700"},{"day":"Friday","hours":"900-1700"},{"day":"Saturday","hours":"900-1700"},{"day":"Sunday","hours":"Closed"}]},
{"id":14,"name":"Jabbertype","address":"729 Tennessee Circle","city":"Annapolis","phoneNumber":"443-873-8448","state":"MD","zip":"21405","license":"2694081819","enabled":false,"preferred":true,"fees":[{"name":"Shotgun","amount":"$75.06"}],"businessHours":[{"day":"Monday","hours":"900-1700"},{"day":"Tuesday","hours":"900-1700"},{"day":"Wednesday","hours":"900-1700"},{"day":"Thursday","hours":"900-1700"},{"day":"Friday","hours":"900-1700"},{"day":"Saturday","hours":"900-1700"},{"day":"Sunday","hours":"Closed"}]},
{"id":15,"name":"Gabcube","address":"80 Maple Wood Point","city":"Washington","phoneNumber":"202-209-5613","state":"DC","zip":"20425","license":"2434798330","enabled":false,"preferred":true,"fees":[{"name":"Rifle","amount":"$86.94"}],"businessHours":[{"day":"Monday","hours":"900-1700"},{"day":"Tuesday","hours":"900-1700"},{"day":"Wednesday","hours":"900-1700"},{"day":"Thursday","hours":"900-1700"},{"day":"Friday","hours":"900-1700"},{"day":"Saturday","hours":"900-1700"},{"day":"Sunday","hours":"Closed"}]},
{"id":16,"name":"Feedfish","address":"1505 Lakewood Gardens Crossing","city":"Lansing","phoneNumber":"517-242-7481","state":"MI","zip":"48901","license":"6691869907","enabled":false,"preferred":true,"fees":[{"name":"Rifle","amount":"$75.06"},{"name":"Shotgun","amount":"$45.96"}],"businessHours":[{"day":"Monday","hours":"900-1700"},{"day":"Tuesday","hours":"900-1700"},{"day":"Wednesday","hours":"900-1700"},{"day":"Thursday","hours":"900-1700"},{"day":"Friday","hours":"900-1700"},{"day":"Saturday","hours":"900-1700"},{"day":"Sunday","hours":"Closed"}]},
{"id":17,"name":"Mynte","address":"4983 Hallows Way","city":"Las Vegas","phoneNumber":"702-349-6732","state":"NV","zip":"89110","license":"2967002623","enabled":false,"preferred":false,"fees":[{"name":"Handgun","amount":"$45.96"},{"name":"Handgun","amount":"$45.96"}],"businessHours":[{"day":"Monday","hours":"900-1700"},{"day":"Tuesday","hours":"900-1700"},{"day":"Wednesday","hours":"900-1700"},{"day":"Thursday","hours":"900-1700"},{"day":"Friday","hours":"900-1700"},{"day":"Saturday","hours":"900-1700"},{"day":"Sunday","hours":"Closed"}]},
{"id":18,"name":"LiveZ","address":"1 Manufacturers Pass","city":"Louisville","phoneNumber":"502-718-6247","state":"KY","zip":"40256","license":"3666572545","enabled":true,"preferred":false,"fees":[{"name":"Rifle","amount":"$86.94"},{"name":"Shotgun","amount":"$45.96"}],"businessHours":[{"day":"Monday","hours":"900-1700"},{"day":"Tuesday","hours":"900-1700"},{"day":"Wednesday","hours":"900-1700"},{"day":"Thursday","hours":"900-1700"},{"day":"Friday","hours":"900-1700"},{"day":"Saturday","hours":"900-1700"},{"day":"Sunday","hours":"Closed"}]},
{"id":19,"name":"Rooxo","address":"8 Meadow Vale Parkway","city":"Cincinnati","phoneNumber":"513-787-5699","state":"OH","zip":"45218","license":"7129724706","enabled":false,"preferred":true,"fees":[{"name":"Shotgun","amount":"$75.06"},{"name":"Handgun","amount":"$86.94"}],"businessHours":[{"day":"Monday","hours":"900-1700"},{"day":"Tuesday","hours":"900-1700"},{"day":"Wednesday","hours":"900-1700"},{"day":"Thursday","hours":"900-1700"},{"day":"Friday","hours":"900-1700"},{"day":"Saturday","hours":"900-1700"},{"day":"Sunday","hours":"Closed"}]},
{"id":20,"name":"Quire","address":"67739 Rowland Terrace","city":"Rochester","phoneNumber":"585-361-5181","state":"NY","zip":"14646","license":"5859458304","enabled":false,"preferred":true,"fees":[{"name":"Handgun","amount":"$45.96"},{"name":"Handgun","amount":"$86.94"}],"businessHours":[{"day":"Monday","hours":"900-1700"},{"day":"Tuesday","hours":"900-1700"},{"day":"Wednesday","hours":"900-1700"},{"day":"Thursday","hours":"900-1700"},{"day":"Friday","hours":"900-1700"},{"day":"Saturday","hours":"900-1700"},{"day":"Sunday","hours":"Closed"}]},
{"id":21,"name":"Realpoint","address":"0 Badeau Alley","city":"Jeffersonville","phoneNumber":"812-821-6613","state":"IN","zip":"47134","license":"9927819889","enabled":false,"preferred":false,"fees":[{"name":"Rifle","amount":"$75.06"},{"name":"Handgun","amount":"$45.96"}],"businessHours":[{"day":"Monday","hours":"900-1700"},{"day":"Tuesday","hours":"900-1700"},{"day":"Wednesday","hours":"900-1700"},{"day":"Thursday","hours":"900-1700"},{"day":"Friday","hours":"900-1700"},{"day":"Saturday","hours":"900-1700"},{"day":"Sunday","hours":"Closed"}]},
{"id":22,"name":"Tekfly","address":"2595 Comanche Plaza","city":"Amarillo","phoneNumber":"806-830-6045","state":"TX","zip":"79182","license":"7581350134","enabled":true,"preferred":true,"fees":[{"name":"Handgun","amount":"$45.96"},{"name":"Handgun","amount":"$75.06"}],"businessHours":[{"day":"Monday","hours":"900-1700"},{"day":"Tuesday","hours":"900-1700"},{"day":"Wednesday","hours":"900-1700"},{"day":"Thursday","hours":"900-1700"},{"day":"Friday","hours":"900-1700"},{"day":"Saturday","hours":"900-1700"},{"day":"Sunday","hours":"Closed"}]},
{"id":23,"name":"Skaboo","address":"50 Darwin Junction","city":"San Jose","phoneNumber":"408-569-0905","state":"CA","zip":"95194","license":"4482048127","enabled":false,"preferred":true,"fees":[{"name":"Shotgun","amount":"$45.96"},{"name":"Shotgun","amount":"$75.06"},{"name":"Handgun","amount":"$45.96"}],"businessHours":[{"day":"Monday","hours":"900-1700"},{"day":"Tuesday","hours":"900-1700"},{"day":"Wednesday","hours":"900-1700"},{"day":"Thursday","hours":"900-1700"},{"day":"Friday","hours":"900-1700"},{"day":"Saturday","hours":"900-1700"},{"day":"Sunday","hours":"Closed"}]},
{"id":24,"name":"Jetpulse","address":"32 Kropf Terrace","city":"Detroit","phoneNumber":"313-359-3393","state":"MI","zip":"48232","license":"3543421964","enabled":true,"preferred":false,"fees":[{"name":"Shotgun","amount":"$45.96"},{"name":"Handgun","amount":"$75.06"},{"name":"Shotgun","amount":"$86.94"}],"businessHours":[{"day":"Monday","hours":"900-1700"},{"day":"Tuesday","hours":"900-1700"},{"day":"Wednesday","hours":"900-1700"},{"day":"Thursday","hours":"900-1700"},{"day":"Friday","hours":"900-1700"},{"day":"Saturday","hours":"900-1700"},{"day":"Sunday","hours":"Closed"}]},
{"id":25,"name":"Feedfire","address":"3 Buena Vista Alley","city":"San Antonio","phoneNumber":"210-810-2969","state":"TX","zip":"78220","license":"3222013411","enabled":false,"preferred":true,"fees":[{"name":"Rifle","amount":"$86.94"},{"name":"Shotgun","amount":"$86.94"}],"businessHours":[{"day":"Monday","hours":"900-1700"},{"day":"Tuesday","hours":"900-1700"},{"day":"Wednesday","hours":"900-1700"},{"day":"Thursday","hours":"900-1700"},{"day":"Friday","hours":"900-1700"},{"day":"Saturday","hours":"900-1700"},{"day":"Sunday","hours":"Closed"}]},
{"id":26,"name":"Fiveclub","address":"5386 Merchant Pass","city":"El Paso","phoneNumber":"915-413-4243","state":"TX","zip":"79999","license":"1553040996","enabled":true,"preferred":true,"fees":[{"name":"Handgun","amount":"$86.94"},{"name":"Rifle","amount":"$75.06"},{"name":"Rifle","amount":"$45.96"}],"businessHours":[{"day":"Monday","hours":"900-1700"},{"day":"Tuesday","hours":"900-1700"},{"day":"Wednesday","hours":"900-1700"},{"day":"Thursday","hours":"900-1700"},{"day":"Friday","hours":"900-1700"},{"day":"Saturday","hours":"900-1700"},{"day":"Sunday","hours":"Closed"}]},
{"id":27,"name":"Oyoyo","address":"177 Oakridge Park","city":"Cleveland","phoneNumber":"440-290-5339","state":"OH","zip":"44125","license":"6017752499","enabled":true,"preferred":true,"fees":[{"name":"Handgun","amount":"$75.06"},{"name":"Rifle","amount":"$86.94"},{"name":"Rifle","amount":"$45.96"}],"businessHours":[{"day":"Monday","hours":"900-1700"},{"day":"Tuesday","hours":"900-1700"},{"day":"Wednesday","hours":"900-1700"},{"day":"Thursday","hours":"900-1700"},{"day":"Friday","hours":"900-1700"},{"day":"Saturday","hours":"900-1700"},{"day":"Sunday","hours":"Closed"}]},
{"id":28,"name":"Youfeed","address":"0 Holmberg Hill","city":"Santa Cruz","phoneNumber":"831-624-8918","state":"CA","zip":"95064","license":"6157387211","enabled":true,"preferred":false,"fees":[{"name":"Shotgun","amount":"$86.94"}],"businessHours":[{"day":"Monday","hours":"900-1700"},{"day":"Tuesday","hours":"900-1700"},{"day":"Wednesday","hours":"900-1700"},{"day":"Thursday","hours":"900-1700"},{"day":"Friday","hours":"900-1700"},{"day":"Saturday","hours":"900-1700"},{"day":"Sunday","hours":"Closed"}]},
{"id":29,"name":"Babbleblab","address":"386 Northport Court","city":"Atlanta","phoneNumber":"404-255-8878","state":"GA","zip":"30380","license":"2614840254","enabled":true,"preferred":false,"fees":[{"name":"Handgun","amount":"$86.94"},{"name":"Rifle","amount":"$45.96"}],"businessHours":[{"day":"Monday","hours":"900-1700"},{"day":"Tuesday","hours":"900-1700"},{"day":"Wednesday","hours":"900-1700"},{"day":"Thursday","hours":"900-1700"},{"day":"Friday","hours":"900-1700"},{"day":"Saturday","hours":"900-1700"},{"day":"Sunday","hours":"Closed"}]},
{"id":30,"name":"Eare","address":"51 Schmedeman Plaza","city":"Bronx","phoneNumber":"917-825-1083","state":"NY","zip":"10464","license":"5072854191","enabled":true,"preferred":true,"fees":[{"name":"Shotgun","amount":"$86.94"},{"name":"Rifle","amount":"$86.94"},{"name":"Shotgun","amount":"$86.94"}],"businessHours":[{"day":"Monday","hours":"900-1700"},{"day":"Tuesday","hours":"900-1700"},{"day":"Wednesday","hours":"900-1700"},{"day":"Thursday","hours":"900-1700"},{"day":"Friday","hours":"900-1700"},{"day":"Saturday","hours":"900-1700"},{"day":"Sunday","hours":"Closed"}]},
{"id":31,"name":"Eamia","address":"7328 Fremont Center","city":"Baltimore","phoneNumber":"443-389-4551","state":"MD","zip":"21211","license":"1449792154","enabled":false,"preferred":true,"fees":[{"name":"Handgun","amount":"$86.94"}],"businessHours":[{"day":"Monday","hours":"900-1700"},{"day":"Tuesday","hours":"900-1700"},{"day":"Wednesday","hours":"900-1700"},{"day":"Thursday","hours":"900-1700"},{"day":"Friday","hours":"900-1700"},{"day":"Saturday","hours":"900-1700"},{"day":"Sunday","hours":"Closed"}]},
{"id":32,"name":"Avaveo","address":"62 Anthes Center","city":"Phoenix","phoneNumber":"480-810-7738","state":"AZ","zip":"85020","license":"9420934942","enabled":true,"preferred":true,"fees":[{"name":"Shotgun","amount":"$75.06"}],"businessHours":[{"day":"Monday","hours":"900-1700"},{"day":"Tuesday","hours":"900-1700"},{"day":"Wednesday","hours":"900-1700"},{"day":"Thursday","hours":"900-1700"},{"day":"Friday","hours":"900-1700"},{"day":"Saturday","hours":"900-1700"},{"day":"Sunday","hours":"Closed"}]},
{"id":33,"name":"Kwinu","address":"98 Wayridge Lane","city":"Hayward","phoneNumber":"925-292-4526","state":"CA","zip":"94544","license":"5487701431","enabled":true,"preferred":false,"fees":[{"name":"Shotgun","amount":"$75.06"},{"name":"Rifle","amount":"$45.96"}],"businessHours":[{"day":"Monday","hours":"900-1700"},{"day":"Tuesday","hours":"900-1700"},{"day":"Wednesday","hours":"900-1700"},{"day":"Thursday","hours":"900-1700"},{"day":"Friday","hours":"900-1700"},{"day":"Saturday","hours":"900-1700"},{"day":"Sunday","hours":"Closed"}]},
{"id":34,"name":"Thoughtsphere","address":"831 Dottie Crossing","city":"Carol Stream","phoneNumber":"309-151-6838","state":"IL","zip":"60158","license":"7983283539","enabled":false,"preferred":false,"fees":[{"name":"Handgun","amount":"$75.06"},{"name":"Handgun","amount":"$86.94"}],"businessHours":[{"day":"Monday","hours":"900-1700"},{"day":"Tuesday","hours":"900-1700"},{"day":"Wednesday","hours":"900-1700"},{"day":"Thursday","hours":"900-1700"},{"day":"Friday","hours":"900-1700"},{"day":"Saturday","hours":"900-1700"},{"day":"Sunday","hours":"Closed"}]},
{"id":35,"name":"Photolist","address":"109 Sachtjen Alley","city":"Terre Haute","phoneNumber":"812-722-8128","state":"IN","zip":"47805","license":"8808191540","enabled":true,"preferred":false,"fees":[{"name":"Rifle","amount":"$86.94"},{"name":"Handgun","amount":"$86.94"},{"name":"Handgun","amount":"$45.96"}],"businessHours":[{"day":"Monday","hours":"900-1700"},{"day":"Tuesday","hours":"900-1700"},{"day":"Wednesday","hours":"900-1700"},{"day":"Thursday","hours":"900-1700"},{"day":"Friday","hours":"900-1700"},{"day":"Saturday","hours":"900-1700"},{"day":"Sunday","hours":"Closed"}]},
{"id":36,"name":"Dynava","address":"85 Ohio Alley","city":"Tallahassee","phoneNumber":"850-161-7854","state":"FL","zip":"32314","license":"8925340496","enabled":false,"preferred":false,"fees":[{"name":"Rifle","amount":"$86.94"},{"name":"Handgun","amount":"$86.94"}],"businessHours":[{"day":"Monday","hours":"900-1700"},{"day":"Tuesday","hours":"900-1700"},{"day":"Wednesday","hours":"900-1700"},{"day":"Thursday","hours":"900-1700"},{"day":"Friday","hours":"900-1700"},{"day":"Saturday","hours":"900-1700"},{"day":"Sunday","hours":"Closed"}]},
{"id":37,"name":"Yata","address":"40737 Rigney Drive","city":"Miami","phoneNumber":"305-135-0626","state":"FL","zip":"33283","license":"7539185759","enabled":true,"preferred":true,"fees":[{"name":"Rifle","amount":"$86.94"},{"name":"Rifle","amount":"$45.96"},{"name":"Rifle","amount":"$86.94"}],"businessHours":[{"day":"Monday","hours":"900-1700"},{"day":"Tuesday","hours":"900-1700"},{"day":"Wednesday","hours":"900-1700"},{"day":"Thursday","hours":"900-1700"},{"day":"Friday","hours":"900-1700"},{"day":"Saturday","hours":"900-1700"},{"day":"Sunday","hours":"Closed"}]},
{"id":38,"name":"Yata","address":"46 Kennedy Parkway","city":"Colorado Springs","phoneNumber":"719-296-7800","state":"CO","zip":"80951","license":"9919414409","enabled":false,"preferred":false,"fees":[{"name":"Shotgun","amount":"$86.94"}],"businessHours":[{"day":"Monday","hours":"900-1700"},{"day":"Tuesday","hours":"900-1700"},{"day":"Wednesday","hours":"900-1700"},{"day":"Thursday","hours":"900-1700"},{"day":"Friday","hours":"900-1700"},{"day":"Saturday","hours":"900-1700"},{"day":"Sunday","hours":"Closed"}]},
{"id":39,"name":"Topdrive","address":"7 Merchant Terrace","city":"Buffalo","phoneNumber":"716-839-5958","state":"NY","zip":"14205","license":"4846584739","enabled":false,"preferred":false,"fees":[{"name":"Shotgun","amount":"$86.94"}],"businessHours":[{"day":"Monday","hours":"900-1700"},{"day":"Tuesday","hours":"900-1700"},{"day":"Wednesday","hours":"900-1700"},{"day":"Thursday","hours":"900-1700"},{"day":"Friday","hours":"900-1700"},{"day":"Saturday","hours":"900-1700"},{"day":"Sunday","hours":"Closed"}]},
{"id":40,"name":"Dazzlesphere","address":"7 Carioca Hill","city":"Columbus","phoneNumber":"614-575-3184","state":"OH","zip":"43204","license":"2802591134","enabled":false,"preferred":false,"fees":[{"name":"Handgun","amount":"$86.94"},{"name":"Rifle","amount":"$75.06"}],"businessHours":[{"day":"Monday","hours":"900-1700"},{"day":"Tuesday","hours":"900-1700"},{"day":"Wednesday","hours":"900-1700"},{"day":"Thursday","hours":"900-1700"},{"day":"Friday","hours":"900-1700"},{"day":"Saturday","hours":"900-1700"},{"day":"Sunday","hours":"Closed"}]},
{"id":41,"name":"Photofeed","address":"578 Hoffman Center","city":"Canton","phoneNumber":"234-873-6023","state":"OH","zip":"44720","license":"4520960452","enabled":true,"preferred":true,"fees":[{"name":"Rifle","amount":"$75.06"}],"businessHours":[{"day":"Monday","hours":"900-1700"},{"day":"Tuesday","hours":"900-1700"},{"day":"Wednesday","hours":"900-1700"},{"day":"Thursday","hours":"900-1700"},{"day":"Friday","hours":"900-1700"},{"day":"Saturday","hours":"900-1700"},{"day":"Sunday","hours":"Closed"}]},
{"id":42,"name":"Meevee","address":"9 Elka Circle","city":"Chicago","phoneNumber":"773-801-1244","state":"IL","zip":"60604","license":"7097636491","enabled":false,"preferred":true,"fees":[{"name":"Rifle","amount":"$86.94"},{"name":"Rifle","amount":"$75.06"}],"businessHours":[{"day":"Monday","hours":"900-1700"},{"day":"Tuesday","hours":"900-1700"},{"day":"Wednesday","hours":"900-1700"},{"day":"Thursday","hours":"900-1700"},{"day":"Friday","hours":"900-1700"},{"day":"Saturday","hours":"900-1700"},{"day":"Sunday","hours":"Closed"}]},
{"id":43,"name":"Aimbu","address":"56199 Oneill Drive","city":"Boise","phoneNumber":"208-996-7331","state":"ID","zip":"83732","license":"4850477461","enabled":true,"preferred":false,"fees":[{"name":"Shotgun","amount":"$75.06"}],"businessHours":[{"day":"Monday","hours":"900-1700"},{"day":"Tuesday","hours":"900-1700"},{"day":"Wednesday","hours":"900-1700"},{"day":"Thursday","hours":"900-1700"},{"day":"Friday","hours":"900-1700"},{"day":"Saturday","hours":"900-1700"},{"day":"Sunday","hours":"Closed"}]},
{"id":44,"name":"DabZ","address":"6 Butternut Way","city":"Punta Gorda","phoneNumber":"941-928-4783","state":"FL","zip":"33982","license":"0111315476","enabled":false,"preferred":false,"fees":[{"name":"Shotgun","amount":"$75.06"},{"name":"Shotgun","amount":"$75.06"}],"businessHours":[{"day":"Monday","hours":"900-1700"},{"day":"Tuesday","hours":"900-1700"},{"day":"Wednesday","hours":"900-1700"},{"day":"Thursday","hours":"900-1700"},{"day":"Friday","hours":"900-1700"},{"day":"Saturday","hours":"900-1700"},{"day":"Sunday","hours":"Closed"}]},
{"id":45,"name":"Chatterpoint","address":"50 Bonner Center","city":"Evansville","phoneNumber":"812-379-2160","state":"IN","zip":"47737","license":"3156878324","enabled":true,"preferred":true,"fees":[{"name":"Handgun","amount":"$75.06"},{"name":"Handgun","amount":"$86.94"},{"name":"Shotgun","amount":"$45.96"}],"businessHours":[{"day":"Monday","hours":"900-1700"},{"day":"Tuesday","hours":"900-1700"},{"day":"Wednesday","hours":"900-1700"},{"day":"Thursday","hours":"900-1700"},{"day":"Friday","hours":"900-1700"},{"day":"Saturday","hours":"900-1700"},{"day":"Sunday","hours":"Closed"}]},
{"id":46,"name":"Skimia","address":"610 Hoard Junction","city":"Bakersfield","phoneNumber":"805-149-7226","state":"CA","zip":"93305","license":"0201731916","enabled":false,"preferred":true,"fees":[{"name":"Rifle","amount":"$45.96"},{"name":"Shotgun","amount":"$75.06"}],"businessHours":[{"day":"Monday","hours":"900-1700"},{"day":"Tuesday","hours":"900-1700"},{"day":"Wednesday","hours":"900-1700"},{"day":"Thursday","hours":"900-1700"},{"day":"Friday","hours":"900-1700"},{"day":"Saturday","hours":"900-1700"},{"day":"Sunday","hours":"Closed"}]},
{"id":47,"name":"Babbleopia","address":"1 Ohio Road","city":"Des Moines","phoneNumber":"515-994-3594","state":"IA","zip":"50315","license":"1692079220","enabled":true,"preferred":true,"fees":[{"name":"Shotgun","amount":"$75.06"}],"businessHours":[{"day":"Monday","hours":"900-1700"},{"day":"Tuesday","hours":"900-1700"},{"day":"Wednesday","hours":"900-1700"},{"day":"Thursday","hours":"900-1700"},{"day":"Friday","hours":"900-1700"},{"day":"Saturday","hours":"900-1700"},{"day":"Sunday","hours":"Closed"}]},
{"id":48,"name":"Quimba","address":"3 Morning Trail","city":"Glendale","phoneNumber":"602-444-8515","state":"AZ","zip":"85311","license":"3267555337","enabled":false,"preferred":false,"fees":[{"name":"Shotgun","amount":"$45.96"},{"name":"Handgun","amount":"$45.96"}],"businessHours":[{"day":"Monday","hours":"900-1700"},{"day":"Tuesday","hours":"900-1700"},{"day":"Wednesday","hours":"900-1700"},{"day":"Thursday","hours":"900-1700"},{"day":"Friday","hours":"900-1700"},{"day":"Saturday","hours":"900-1700"},{"day":"Sunday","hours":"Closed"}]},
{"id":49,"name":"Meemm","address":"06 Knutson Trail","city":"Columbus","phoneNumber":"614-140-3224","state":"OH","zip":"43268","license":"8857471837","enabled":false,"preferred":false,"fees":[{"name":"Rifle","amount":"$75.06"},{"name":"Shotgun","amount":"$45.96"}],"businessHours":[{"day":"Monday","hours":"900-1700"},{"day":"Tuesday","hours":"900-1700"},{"day":"Wednesday","hours":"900-1700"},{"day":"Thursday","hours":"900-1700"},{"day":"Friday","hours":"900-1700"},{"day":"Saturday","hours":"900-1700"},{"day":"Sunday","hours":"Closed"}]},
{"id":50,"name":"Mudo","address":"28 Donald Street","city":"Chicago","phoneNumber":"312-346-5799","state":"IL","zip":"60619","license":"1169089720","enabled":true,"preferred":false,"fees":[{"name":"Handgun","amount":"$86.94"}],"businessHours":[{"day":"Monday","hours":"900-1700"},{"day":"Tuesday","hours":"900-1700"},{"day":"Wednesday","hours":"900-1700"},{"day":"Thursday","hours":"900-1700"},{"day":"Friday","hours":"900-1700"},{"day":"Saturday","hours":"900-1700"},{"day":"Sunday","hours":"Closed"}]},
{"id":51,"name":"Jabbercube","address":"59 Magdeline Court","city":"Washington","phoneNumber":"202-386-4643","state":"DC","zip":"20540","license":"4189973262","enabled":true,"preferred":true,"fees":[{"name":"Rifle","amount":"$86.94"},{"name":"Shotgun","amount":"$86.94"},{"name":"Handgun","amount":"$86.94"}],"businessHours":[{"day":"Monday","hours":"900-1700"},{"day":"Tuesday","hours":"900-1700"},{"day":"Wednesday","hours":"900-1700"},{"day":"Thursday","hours":"900-1700"},{"day":"Friday","hours":"900-1700"},{"day":"Saturday","hours":"900-1700"},{"day":"Sunday","hours":"Closed"}]},
{"id":52,"name":"Topiclounge","address":"896 Scoville Alley","city":"San Diego","phoneNumber":"619-918-2645","state":"CA","zip":"92145","license":"6473010203","enabled":false,"preferred":true,"fees":[{"name":"Rifle","amount":"$75.06"},{"name":"Shotgun","amount":"$75.06"},{"name":"Handgun","amount":"$45.96"}],"businessHours":[{"day":"Monday","hours":"900-1700"},{"day":"Tuesday","hours":"900-1700"},{"day":"Wednesday","hours":"900-1700"},{"day":"Thursday","hours":"900-1700"},{"day":"Friday","hours":"900-1700"},{"day":"Saturday","hours":"900-1700"},{"day":"Sunday","hours":"Closed"}]},
{"id":53,"name":"Voonte","address":"792 Beilfuss Street","city":"Fort Myers","phoneNumber":"239-126-3693","state":"FL","zip":"33906","license":"5751781309","enabled":true,"preferred":true,"fees":[{"name":"Shotgun","amount":"$75.06"}],"businessHours":[{"day":"Monday","hours":"900-1700"},{"day":"Tuesday","hours":"900-1700"},{"day":"Wednesday","hours":"900-1700"},{"day":"Thursday","hours":"900-1700"},{"day":"Friday","hours":"900-1700"},{"day":"Saturday","hours":"900-1700"},{"day":"Sunday","hours":"Closed"}]},
{"id":54,"name":"Pixoboo","address":"0692 Loeprich Court","city":"Allentown","phoneNumber":"610-969-6018","state":"PA","zip":"18105","license":"9651430818","enabled":false,"preferred":false,"fees":[{"name":"Handgun","amount":"$45.96"},{"name":"Rifle","amount":"$75.06"}],"businessHours":[{"day":"Monday","hours":"900-1700"},{"day":"Tuesday","hours":"900-1700"},{"day":"Wednesday","hours":"900-1700"},{"day":"Thursday","hours":"900-1700"},{"day":"Friday","hours":"900-1700"},{"day":"Saturday","hours":"900-1700"},{"day":"Sunday","hours":"Closed"}]},
{"id":55,"name":"Skinte","address":"06948 Doe Crossing Park","city":"Sacramento","phoneNumber":"916-581-3972","state":"CA","zip":"94297","license":"7210752463","enabled":false,"preferred":true,"fees":[{"name":"Rifle","amount":"$86.94"},{"name":"Shotgun","amount":"$45.96"},{"name":"Rifle","amount":"$45.96"}],"businessHours":[{"day":"Monday","hours":"900-1700"},{"day":"Tuesday","hours":"900-1700"},{"day":"Wednesday","hours":"900-1700"},{"day":"Thursday","hours":"900-1700"},{"day":"Friday","hours":"900-1700"},{"day":"Saturday","hours":"900-1700"},{"day":"Sunday","hours":"Closed"}]},
{"id":56,"name":"Twitternation","address":"699 Roxbury Junction","city":"New York City","phoneNumber":"212-941-5877","state":"NY","zip":"10275","license":"3832740341","enabled":true,"preferred":true,"fees":[{"name":"Rifle","amount":"$45.96"},{"name":"Rifle","amount":"$86.94"}],"businessHours":[{"day":"Monday","hours":"900-1700"},{"day":"Tuesday","hours":"900-1700"},{"day":"Wednesday","hours":"900-1700"},{"day":"Thursday","hours":"900-1700"},{"day":"Friday","hours":"900-1700"},{"day":"Saturday","hours":"900-1700"},{"day":"Sunday","hours":"Closed"}]},
{"id":57,"name":"Midel","address":"9 Crescent Oaks Hill","city":"Omaha","phoneNumber":"402-509-4975","state":"NE","zip":"68124","license":"2938612060","enabled":false,"preferred":true,"fees":[{"name":"Shotgun","amount":"$45.96"},{"name":"Rifle","amount":"$45.96"}],"businessHours":[{"day":"Monday","hours":"900-1700"},{"day":"Tuesday","hours":"900-1700"},{"day":"Wednesday","hours":"900-1700"},{"day":"Thursday","hours":"900-1700"},{"day":"Friday","hours":"900-1700"},{"day":"Saturday","hours":"900-1700"},{"day":"Sunday","hours":"Closed"}]},
{"id":58,"name":"Browsedrive","address":"8 Prairieview Road","city":"Charlotte","phoneNumber":"704-173-7689","state":"NC","zip":"28205","license":"9838120650","enabled":false,"preferred":false,"fees":[{"name":"Rifle","amount":"$45.96"}],"businessHours":[{"day":"Monday","hours":"900-1700"},{"day":"Tuesday","hours":"900-1700"},{"day":"Wednesday","hours":"900-1700"},{"day":"Thursday","hours":"900-1700"},{"day":"Friday","hours":"900-1700"},{"day":"Saturday","hours":"900-1700"},{"day":"Sunday","hours":"Closed"}]},
{"id":59,"name":"Jetwire","address":"97356 Becker Pass","city":"Charleston","phoneNumber":"304-669-4023","state":"WV","zip":"25336","license":"7638953916","enabled":false,"preferred":true,"fees":[{"name":"Handgun","amount":"$86.94"},{"name":"Shotgun","amount":"$86.94"},{"name":"Rifle","amount":"$75.06"}],"businessHours":[{"day":"Monday","hours":"900-1700"},{"day":"Tuesday","hours":"900-1700"},{"day":"Wednesday","hours":"900-1700"},{"day":"Thursday","hours":"900-1700"},{"day":"Friday","hours":"900-1700"},{"day":"Saturday","hours":"900-1700"},{"day":"Sunday","hours":"Closed"}]},
{"id":60,"name":"Quinu","address":"073 Kedzie Parkway","city":"Bronx","phoneNumber":"917-697-3933","state":"NY","zip":"10474","license":"2480596060","enabled":false,"preferred":true,"fees":[{"name":"Shotgun","amount":"$45.96"},{"name":"Handgun","amount":"$86.94"},{"name":"Shotgun","amount":"$75.06"}],"businessHours":[{"day":"Monday","hours":"900-1700"},{"day":"Tuesday","hours":"900-1700"},{"day":"Wednesday","hours":"900-1700"},{"day":"Thursday","hours":"900-1700"},{"day":"Friday","hours":"900-1700"},{"day":"Saturday","hours":"900-1700"},{"day":"Sunday","hours":"Closed"}]},
{"id":61,"name":"Yacero","address":"3582 Harper Trail","city":"Bellevue","phoneNumber":"206-894-8702","state":"WA","zip":"98008","license":"6714847467","enabled":true,"preferred":false,"fees":[{"name":"Rifle","amount":"$45.96"},{"name":"Handgun","amount":"$75.06"},{"name":"Rifle","amount":"$86.94"}],"businessHours":[{"day":"Monday","hours":"900-1700"},{"day":"Tuesday","hours":"900-1700"},{"day":"Wednesday","hours":"900-1700"},{"day":"Thursday","hours":"900-1700"},{"day":"Friday","hours":"900-1700"},{"day":"Saturday","hours":"900-1700"},{"day":"Sunday","hours":"Closed"}]},
{"id":62,"name":"Lajo","address":"6 Old Gate Street","city":"Alhambra","phoneNumber":"626-988-1189","state":"CA","zip":"91841","license":"1256698067","enabled":true,"preferred":false,"fees":[{"name":"Rifle","amount":"$75.06"},{"name":"Shotgun","amount":"$86.94"}],"businessHours":[{"day":"Monday","hours":"900-1700"},{"day":"Tuesday","hours":"900-1700"},{"day":"Wednesday","hours":"900-1700"},{"day":"Thursday","hours":"900-1700"},{"day":"Friday","hours":"900-1700"},{"day":"Saturday","hours":"900-1700"},{"day":"Sunday","hours":"Closed"}]},
{"id":63,"name":"Bubblebox","address":"58 Sutherland Hill","city":"Tacoma","phoneNumber":"253-867-6181","state":"WA","zip":"98464","license":"8614484275","enabled":false,"preferred":false,"fees":[{"name":"Handgun","amount":"$45.96"},{"name":"Shotgun","amount":"$45.96"}],"businessHours":[{"day":"Monday","hours":"900-1700"},{"day":"Tuesday","hours":"900-1700"},{"day":"Wednesday","hours":"900-1700"},{"day":"Thursday","hours":"900-1700"},{"day":"Friday","hours":"900-1700"},{"day":"Saturday","hours":"900-1700"},{"day":"Sunday","hours":"Closed"}]},
{"id":64,"name":"Dynazzy","address":"39 Monica Park","city":"Lincoln","phoneNumber":"402-435-0085","state":"NE","zip":"68517","license":"5596762741","enabled":true,"preferred":true,"fees":[{"name":"Handgun","amount":"$75.06"},{"name":"Rifle","amount":"$86.94"}],"businessHours":[{"day":"Monday","hours":"900-1700"},{"day":"Tuesday","hours":"900-1700"},{"day":"Wednesday","hours":"900-1700"},{"day":"Thursday","hours":"900-1700"},{"day":"Friday","hours":"900-1700"},{"day":"Saturday","hours":"900-1700"},{"day":"Sunday","hours":"Closed"}]},
{"id":65,"name":"Yambee","address":"519 Scofield Trail","city":"Denver","phoneNumber":"303-935-3134","state":"CO","zip":"80279","license":"7859198835","enabled":false,"preferred":false,"fees":[{"name":"Handgun","amount":"$86.94"},{"name":"Handgun","amount":"$75.06"},{"name":"Handgun","amount":"$45.96"}],"businessHours":[{"day":"Monday","hours":"900-1700"},{"day":"Tuesday","hours":"900-1700"},{"day":"Wednesday","hours":"900-1700"},{"day":"Thursday","hours":"900-1700"},{"day":"Friday","hours":"900-1700"},{"day":"Saturday","hours":"900-1700"},{"day":"Sunday","hours":"Closed"}]},
{"id":66,"name":"Geba","address":"5883 Brown Drive","city":"Norfolk","phoneNumber":"757-445-3058","state":"VA","zip":"23514","license":"6958611438","enabled":false,"preferred":false,"fees":[{"name":"Handgun","amount":"$45.96"}],"businessHours":[{"day":"Monday","hours":"900-1700"},{"day":"Tuesday","hours":"900-1700"},{"day":"Wednesday","hours":"900-1700"},{"day":"Thursday","hours":"900-1700"},{"day":"Friday","hours":"900-1700"},{"day":"Saturday","hours":"900-1700"},{"day":"Sunday","hours":"Closed"}]},
{"id":67,"name":"Quire","address":"307 Glendale Center","city":"Las Vegas","phoneNumber":"702-401-2346","state":"NV","zip":"89135","license":"6907821850","enabled":true,"preferred":true,"fees":[{"name":"Rifle","amount":"$86.94"},{"name":"Rifle","amount":"$45.96"}],"businessHours":[{"day":"Monday","hours":"900-1700"},{"day":"Tuesday","hours":"900-1700"},{"day":"Wednesday","hours":"900-1700"},{"day":"Thursday","hours":"900-1700"},{"day":"Friday","hours":"900-1700"},{"day":"Saturday","hours":"900-1700"},{"day":"Sunday","hours":"Closed"}]},
{"id":68,"name":"Wordtune","address":"60489 Judy Center","city":"Springfield","phoneNumber":"417-495-0467","state":"MO","zip":"65805","license":"7136334357","enabled":true,"preferred":true,"fees":[{"name":"Shotgun","amount":"$75.06"},{"name":"Shotgun","amount":"$45.96"},{"name":"Shotgun","amount":"$45.96"}],"businessHours":[{"day":"Monday","hours":"900-1700"},{"day":"Tuesday","hours":"900-1700"},{"day":"Wednesday","hours":"900-1700"},{"day":"Thursday","hours":"900-1700"},{"day":"Friday","hours":"900-1700"},{"day":"Saturday","hours":"900-1700"},{"day":"Sunday","hours":"Closed"}]},
{"id":69,"name":"Skibox","address":"74407 Farwell Street","city":"Greeley","phoneNumber":"970-602-2011","state":"CO","zip":"80638","license":"8601047629","enabled":true,"preferred":true,"fees":[{"name":"Handgun","amount":"$86.94"},{"name":"Handgun","amount":"$75.06"},{"name":"Handgun","amount":"$45.96"}],"businessHours":[{"day":"Monday","hours":"900-1700"},{"day":"Tuesday","hours":"900-1700"},{"day":"Wednesday","hours":"900-1700"},{"day":"Thursday","hours":"900-1700"},{"day":"Friday","hours":"900-1700"},{"day":"Saturday","hours":"900-1700"},{"day":"Sunday","hours":"Closed"}]},
{"id":70,"name":"Photobug","address":"138 Bashford Plaza","city":"Detroit","phoneNumber":"313-725-3802","state":"MI","zip":"48267","license":"2793496693","enabled":false,"preferred":false,"fees":[{"name":"Rifle","amount":"$45.96"},{"name":"Rifle","amount":"$86.94"},{"name":"Handgun","amount":"$86.94"}],"businessHours":[{"day":"Monday","hours":"900-1700"},{"day":"Tuesday","hours":"900-1700"},{"day":"Wednesday","hours":"900-1700"},{"day":"Thursday","hours":"900-1700"},{"day":"Friday","hours":"900-1700"},{"day":"Saturday","hours":"900-1700"},{"day":"Sunday","hours":"Closed"}]},
{"id":71,"name":"Rhyzio","address":"7 Daystar Street","city":"Greensboro","phoneNumber":"336-110-5016","state":"NC","zip":"27404","license":"6389152752","enabled":false,"preferred":false,"fees":[{"name":"Handgun","amount":"$75.06"},{"name":"Rifle","amount":"$86.94"}],"businessHours":[{"day":"Monday","hours":"900-1700"},{"day":"Tuesday","hours":"900-1700"},{"day":"Wednesday","hours":"900-1700"},{"day":"Thursday","hours":"900-1700"},{"day":"Friday","hours":"900-1700"},{"day":"Saturday","hours":"900-1700"},{"day":"Sunday","hours":"Closed"}]},
{"id":72,"name":"Gabcube","address":"4 Killdeer Pass","city":"San Francisco","phoneNumber":"415-351-9910","state":"CA","zip":"94142","license":"8143795233","enabled":false,"preferred":true,"fees":[{"name":"Handgun","amount":"$86.94"},{"name":"Shotgun","amount":"$75.06"}],"businessHours":[{"day":"Monday","hours":"900-1700"},{"day":"Tuesday","hours":"900-1700"},{"day":"Wednesday","hours":"900-1700"},{"day":"Thursday","hours":"900-1700"},{"day":"Friday","hours":"900-1700"},{"day":"Saturday","hours":"900-1700"},{"day":"Sunday","hours":"Closed"}]},
{"id":73,"name":"Edgeclub","address":"91 Marquette Pass","city":"Fort Wayne","phoneNumber":"260-928-2184","state":"IN","zip":"46825","license":"7600223473","enabled":false,"preferred":false,"fees":[{"name":"Rifle","amount":"$45.96"},{"name":"Rifle","amount":"$86.94"}],"businessHours":[{"day":"Monday","hours":"900-1700"},{"day":"Tuesday","hours":"900-1700"},{"day":"Wednesday","hours":"900-1700"},{"day":"Thursday","hours":"900-1700"},{"day":"Friday","hours":"900-1700"},{"day":"Saturday","hours":"900-1700"},{"day":"Sunday","hours":"Closed"}]},
{"id":74,"name":"Muxo","address":"277 Kingsford Crossing","city":"Anaheim","phoneNumber":"714-940-9051","state":"CA","zip":"92812","license":"2226359931","enabled":true,"preferred":true,"fees":[{"name":"Handgun","amount":"$45.96"}],"businessHours":[{"day":"Monday","hours":"900-1700"},{"day":"Tuesday","hours":"900-1700"},{"day":"Wednesday","hours":"900-1700"},{"day":"Thursday","hours":"900-1700"},{"day":"Friday","hours":"900-1700"},{"day":"Saturday","hours":"900-1700"},{"day":"Sunday","hours":"Closed"}]},
{"id":75,"name":"Ainyx","address":"7 Moulton Court","city":"Portland","phoneNumber":"207-347-3402","state":"ME","zip":"04109","license":"5025495482","enabled":false,"preferred":false,"fees":[{"name":"Rifle","amount":"$75.06"},{"name":"Rifle","amount":"$75.06"}],"businessHours":[{"day":"Monday","hours":"900-1700"},{"day":"Tuesday","hours":"900-1700"},{"day":"Wednesday","hours":"900-1700"},{"day":"Thursday","hours":"900-1700"},{"day":"Friday","hours":"900-1700"},{"day":"Saturday","hours":"900-1700"},{"day":"Sunday","hours":"Closed"}]},
{"id":76,"name":"Livefish","address":"6030 Packers Alley","city":"Duluth","phoneNumber":"770-451-8386","state":"GA","zip":"30096","license":"5062479223","enabled":false,"preferred":false,"fees":[{"name":"Rifle","amount":"$86.94"},{"name":"Handgun","amount":"$45.96"}],"businessHours":[{"day":"Monday","hours":"900-1700"},{"day":"Tuesday","hours":"900-1700"},{"day":"Wednesday","hours":"900-1700"},{"day":"Thursday","hours":"900-1700"},{"day":"Friday","hours":"900-1700"},{"day":"Saturday","hours":"900-1700"},{"day":"Sunday","hours":"Closed"}]},
{"id":77,"name":"Fliptune","address":"84295 Sherman Drive","city":"Cheyenne","phoneNumber":"307-935-2665","state":"WY","zip":"82007","license":"4536129057","enabled":false,"preferred":true,"fees":[{"name":"Shotgun","amount":"$75.06"},{"name":"Shotgun","amount":"$86.94"}],"businessHours":[{"day":"Monday","hours":"900-1700"},{"day":"Tuesday","hours":"900-1700"},{"day":"Wednesday","hours":"900-1700"},{"day":"Thursday","hours":"900-1700"},{"day":"Friday","hours":"900-1700"},{"day":"Saturday","hours":"900-1700"},{"day":"Sunday","hours":"Closed"}]},
{"id":78,"name":"Brainlounge","address":"786 Southridge Center","city":"Long Beach","phoneNumber":"562-483-2861","state":"CA","zip":"90831","license":"2482221293","enabled":false,"preferred":false,"fees":[{"name":"Handgun","amount":"$86.94"},{"name":"Handgun","amount":"$75.06"}],"businessHours":[{"day":"Monday","hours":"900-1700"},{"day":"Tuesday","hours":"900-1700"},{"day":"Wednesday","hours":"900-1700"},{"day":"Thursday","hours":"900-1700"},{"day":"Friday","hours":"900-1700"},{"day":"Saturday","hours":"900-1700"},{"day":"Sunday","hours":"Closed"}]},
{"id":79,"name":"Plajo","address":"65695 Farmco Court","city":"Houston","phoneNumber":"713-204-0597","state":"TX","zip":"77228","license":"5987981778","enabled":false,"preferred":false,"fees":[{"name":"Shotgun","amount":"$45.96"}],"businessHours":[{"day":"Monday","hours":"900-1700"},{"day":"Tuesday","hours":"900-1700"},{"day":"Wednesday","hours":"900-1700"},{"day":"Thursday","hours":"900-1700"},{"day":"Friday","hours":"900-1700"},{"day":"Saturday","hours":"900-1700"},{"day":"Sunday","hours":"Closed"}]},
{"id":80,"name":"Voolia","address":"717 Eagle Crest Terrace","city":"Battle Creek","phoneNumber":"269-172-9252","state":"MI","zip":"49018","license":"4285967383","enabled":true,"preferred":true,"fees":[{"name":"Shotgun","amount":"$86.94"}],"businessHours":[{"day":"Monday","hours":"900-1700"},{"day":"Tuesday","hours":"900-1700"},{"day":"Wednesday","hours":"900-1700"},{"day":"Thursday","hours":"900-1700"},{"day":"Friday","hours":"900-1700"},{"day":"Saturday","hours":"900-1700"},{"day":"Sunday","hours":"Closed"}]},
{"id":81,"name":"Voonix","address":"2 Aberg Hill","city":"Fullerton","phoneNumber":"559-125-7788","state":"CA","zip":"92640","license":"8200898733","enabled":true,"preferred":false,"fees":[{"name":"Handgun","amount":"$86.94"},{"name":"Handgun","amount":"$75.06"}],"businessHours":[{"day":"Monday","hours":"900-1700"},{"day":"Tuesday","hours":"900-1700"},{"day":"Wednesday","hours":"900-1700"},{"day":"Thursday","hours":"900-1700"},{"day":"Friday","hours":"900-1700"},{"day":"Saturday","hours":"900-1700"},{"day":"Sunday","hours":"Closed"}]},
{"id":82,"name":"Jabberbean","address":"71 Cottonwood Crossing","city":"Washington","phoneNumber":"703-614-6415","state":"DC","zip":"20041","license":"5169222831","enabled":false,"preferred":true,"fees":[{"name":"Shotgun","amount":"$75.06"},{"name":"Handgun","amount":"$45.96"}],"businessHours":[{"day":"Monday","hours":"900-1700"},{"day":"Tuesday","hours":"900-1700"},{"day":"Wednesday","hours":"900-1700"},{"day":"Thursday","hours":"900-1700"},{"day":"Friday","hours":"900-1700"},{"day":"Saturday","hours":"900-1700"},{"day":"Sunday","hours":"Closed"}]},
{"id":83,"name":"Vitz","address":"617 Stang Terrace","city":"Long Beach","phoneNumber":"562-930-0278","state":"CA","zip":"90831","license":"9483903734","enabled":true,"preferred":true,"fees":[{"name":"Shotgun","amount":"$75.06"},{"name":"Handgun","amount":"$86.94"}],"businessHours":[{"day":"Monday","hours":"900-1700"},{"day":"Tuesday","hours":"900-1700"},{"day":"Wednesday","hours":"900-1700"},{"day":"Thursday","hours":"900-1700"},{"day":"Friday","hours":"900-1700"},{"day":"Saturday","hours":"900-1700"},{"day":"Sunday","hours":"Closed"}]},
{"id":84,"name":"Jabbersphere","address":"5 Forest Place","city":"Bradenton","phoneNumber":"941-159-0364","state":"FL","zip":"34205","license":"9679761061","enabled":false,"preferred":false,"fees":[{"name":"Shotgun","amount":"$86.94"},{"name":"Rifle","amount":"$75.06"}],"businessHours":[{"day":"Monday","hours":"900-1700"},{"day":"Tuesday","hours":"900-1700"},{"day":"Wednesday","hours":"900-1700"},{"day":"Thursday","hours":"900-1700"},{"day":"Friday","hours":"900-1700"},{"day":"Saturday","hours":"900-1700"},{"day":"Sunday","hours":"Closed"}]},
{"id":85,"name":"Oloo","address":"1 Glacier Hill Hill","city":"Oklahoma City","phoneNumber":"405-201-1034","state":"OK","zip":"73173","license":"5292747017","enabled":true,"preferred":true,"fees":[{"name":"Rifle","amount":"$45.96"},{"name":"Handgun","amount":"$86.94"}],"businessHours":[{"day":"Monday","hours":"900-1700"},{"day":"Tuesday","hours":"900-1700"},{"day":"Wednesday","hours":"900-1700"},{"day":"Thursday","hours":"900-1700"},{"day":"Friday","hours":"900-1700"},{"day":"Saturday","hours":"900-1700"},{"day":"Sunday","hours":"Closed"}]},
{"id":86,"name":"Buzzshare","address":"4456 5th Lane","city":"Houston","phoneNumber":"281-204-4706","state":"TX","zip":"77293","license":"9800198970","enabled":false,"preferred":false,"fees":[{"name":"Handgun","amount":"$45.96"},{"name":"Handgun","amount":"$86.94"}],"businessHours":[{"day":"Monday","hours":"900-1700"},{"day":"Tuesday","hours":"900-1700"},{"day":"Wednesday","hours":"900-1700"},{"day":"Thursday","hours":"900-1700"},{"day":"Friday","hours":"900-1700"},{"day":"Saturday","hours":"900-1700"},{"day":"Sunday","hours":"Closed"}]},
{"id":87,"name":"Tagpad","address":"61 Randy Court","city":"Midland","phoneNumber":"432-609-5987","state":"TX","zip":"79705","license":"7596179126","enabled":true,"preferred":true,"fees":[{"name":"Rifle","amount":"$75.06"}],"businessHours":[{"day":"Monday","hours":"900-1700"},{"day":"Tuesday","hours":"900-1700"},{"day":"Wednesday","hours":"900-1700"},{"day":"Thursday","hours":"900-1700"},{"day":"Friday","hours":"900-1700"},{"day":"Saturday","hours":"900-1700"},{"day":"Sunday","hours":"Closed"}]},
{"id":88,"name":"Digitube","address":"07 Shelley Way","city":"Tampa","phoneNumber":"813-318-2928","state":"FL","zip":"33686","license":"5341923316","enabled":true,"preferred":false,"fees":[{"name":"Handgun","amount":"$86.94"},{"name":"Handgun","amount":"$86.94"},{"name":"Rifle","amount":"$45.96"}],"businessHours":[{"day":"Monday","hours":"900-1700"},{"day":"Tuesday","hours":"900-1700"},{"day":"Wednesday","hours":"900-1700"},{"day":"Thursday","hours":"900-1700"},{"day":"Friday","hours":"900-1700"},{"day":"Saturday","hours":"900-1700"},{"day":"Sunday","hours":"Closed"}]},
{"id":89,"name":"Youspan","address":"32912 Blackbird Trail","city":"Washington","phoneNumber":"202-304-0101","state":"DC","zip":"20205","license":"0960575979","enabled":true,"preferred":true,"fees":[{"name":"Shotgun","amount":"$75.06"},{"name":"Handgun","amount":"$75.06"}],"businessHours":[{"day":"Monday","hours":"900-1700"},{"day":"Tuesday","hours":"900-1700"},{"day":"Wednesday","hours":"900-1700"},{"day":"Thursday","hours":"900-1700"},{"day":"Friday","hours":"900-1700"},{"day":"Saturday","hours":"900-1700"},{"day":"Sunday","hours":"Closed"}]},
{"id":90,"name":"Chatterbridge","address":"9 Parkside Terrace","city":"Atlanta","phoneNumber":"770-478-3377","state":"GA","zip":"30340","license":"7908720536","enabled":true,"preferred":true,"fees":[{"name":"Rifle","amount":"$45.96"}],"businessHours":[{"day":"Monday","hours":"900-1700"},{"day":"Tuesday","hours":"900-1700"},{"day":"Wednesday","hours":"900-1700"},{"day":"Thursday","hours":"900-1700"},{"day":"Friday","hours":"900-1700"},{"day":"Saturday","hours":"900-1700"},{"day":"Sunday","hours":"Closed"}]},
{"id":91,"name":"Gevee","address":"2485 Ridgeway Point","city":"Springfield","phoneNumber":"217-895-1520","state":"IL","zip":"62705","license":"0795676034","enabled":false,"preferred":true,"fees":[{"name":"Rifle","amount":"$86.94"},{"name":"Shotgun","amount":"$86.94"}],"businessHours":[{"day":"Monday","hours":"900-1700"},{"day":"Tuesday","hours":"900-1700"},{"day":"Wednesday","hours":"900-1700"},{"day":"Thursday","hours":"900-1700"},{"day":"Friday","hours":"900-1700"},{"day":"Saturday","hours":"900-1700"},{"day":"Sunday","hours":"Closed"}]},
{"id":92,"name":"Youspan","address":"412 Darwin Way","city":"Shawnee Mission","phoneNumber":"913-226-1936","state":"KS","zip":"66286","license":"9242863319","enabled":false,"preferred":true,"fees":[{"name":"Rifle","amount":"$86.94"}],"businessHours":[{"day":"Monday","hours":"900-1700"},{"day":"Tuesday","hours":"900-1700"},{"day":"Wednesday","hours":"900-1700"},{"day":"Thursday","hours":"900-1700"},{"day":"Friday","hours":"900-1700"},{"day":"Saturday","hours":"900-1700"},{"day":"Sunday","hours":"Closed"}]},
{"id":93,"name":"Yakijo","address":"46060 Eastlawn Terrace","city":"San Antonio","phoneNumber":"210-684-3003","state":"TX","zip":"78210","license":"6730963670","enabled":true,"preferred":true,"fees":[{"name":"Handgun","amount":"$75.06"},{"name":"Shotgun","amount":"$45.96"}],"businessHours":[{"day":"Monday","hours":"900-1700"},{"day":"Tuesday","hours":"900-1700"},{"day":"Wednesday","hours":"900-1700"},{"day":"Thursday","hours":"900-1700"},{"day":"Friday","hours":"900-1700"},{"day":"Saturday","hours":"900-1700"},{"day":"Sunday","hours":"Closed"}]},
{"id":94,"name":"Gevee","address":"755 Mcbride Trail","city":"Kansas City","phoneNumber":"816-345-1973","state":"MO","zip":"64187","license":"0683324179","enabled":true,"preferred":false,"fees":[{"name":"Rifle","amount":"$75.06"},{"name":"Rifle","amount":"$45.96"}],"businessHours":[{"day":"Monday","hours":"900-1700"},{"day":"Tuesday","hours":"900-1700"},{"day":"Wednesday","hours":"900-1700"},{"day":"Thursday","hours":"900-1700"},{"day":"Friday","hours":"900-1700"},{"day":"Saturday","hours":"900-1700"},{"day":"Sunday","hours":"Closed"}]},
{"id":95,"name":"Livefish","address":"90 Anthes Lane","city":"Riverside","phoneNumber":"909-129-7875","state":"CA","zip":"92505","license":"8258472836","enabled":false,"preferred":true,"fees":[{"name":"Rifle","amount":"$86.94"}],"businessHours":[{"day":"Monday","hours":"900-1700"},{"day":"Tuesday","hours":"900-1700"},{"day":"Wednesday","hours":"900-1700"},{"day":"Thursday","hours":"900-1700"},{"day":"Friday","hours":"900-1700"},{"day":"Saturday","hours":"900-1700"},{"day":"Sunday","hours":"Closed"}]},
{"id":96,"name":"Kare","address":"3208 Bunker Hill Crossing","city":"Bradenton","phoneNumber":"941-703-9728","state":"FL","zip":"34282","license":"5443403818","enabled":true,"preferred":false,"fees":[{"name":"Shotgun","amount":"$86.94"},{"name":"Shotgun","amount":"$45.96"},{"name":"Rifle","amount":"$86.94"}],"businessHours":[{"day":"Monday","hours":"900-1700"},{"day":"Tuesday","hours":"900-1700"},{"day":"Wednesday","hours":"900-1700"},{"day":"Thursday","hours":"900-1700"},{"day":"Friday","hours":"900-1700"},{"day":"Saturday","hours":"900-1700"},{"day":"Sunday","hours":"Closed"}]},
{"id":97,"name":"Flipbug","address":"79 Grim Crossing","city":"Virginia Beach","phoneNumber":"757-487-2510","state":"VA","zip":"23454","license":"2606999665","enabled":false,"preferred":true,"fees":[{"name":"Shotgun","amount":"$75.06"}],"businessHours":[{"day":"Monday","hours":"900-1700"},{"day":"Tuesday","hours":"900-1700"},{"day":"Wednesday","hours":"900-1700"},{"day":"Thursday","hours":"900-1700"},{"day":"Friday","hours":"900-1700"},{"day":"Saturday","hours":"900-1700"},{"day":"Sunday","hours":"Closed"}]},
{"id":98,"name":"Roombo","address":"2564 Delladonna Alley","city":"Huntsville","phoneNumber":"256-820-7222","state":"AL","zip":"35810","license":"5525100967","enabled":false,"preferred":false,"fees":[{"name":"Shotgun","amount":"$45.96"},{"name":"Handgun","amount":"$45.96"}],"businessHours":[{"day":"Monday","hours":"900-1700"},{"day":"Tuesday","hours":"900-1700"},{"day":"Wednesday","hours":"900-1700"},{"day":"Thursday","hours":"900-1700"},{"day":"Friday","hours":"900-1700"},{"day":"Saturday","hours":"900-1700"},{"day":"Sunday","hours":"Closed"}]},
{"id":99,"name":"Yacero","address":"9 Elgar Plaza","city":"Terre Haute","phoneNumber":"812-840-8159","state":"IN","zip":"47812","license":"0338781595","enabled":false,"preferred":true,"fees":[{"name":"Handgun","amount":"$75.06"},{"name":"Rifle","amount":"$75.06"},{"name":"Rifle","amount":"$86.94"}],"businessHours":[{"day":"Monday","hours":"900-1700"},{"day":"Tuesday","hours":"900-1700"},{"day":"Wednesday","hours":"900-1700"},{"day":"Thursday","hours":"900-1700"},{"day":"Friday","hours":"900-1700"},{"day":"Saturday","hours":"900-1700"},{"day":"Sunday","hours":"Closed"}]},
{"id":100,"name":"Meevee","address":"89979 Helena Street","city":"Austin","phoneNumber":"512-628-9583","state":"TX","zip":"78778","license":"6381034084","enabled":true,"preferred":false,"fees":[{"name":"Shotgun","amount":"$86.94"}],"businessHours":[{"day":"Monday","hours":"900-1700"},{"day":"Tuesday","hours":"900-1700"},{"day":"Wednesday","hours":"900-1700"},{"day":"Thursday","hours":"900-1700"},{"day":"Friday","hours":"900-1700"},{"day":"Saturday","hours":"900-1700"},{"day":"Sunday","hours":"Closed"}]}]